{
    "data": [
        {
            "latitude": 21.03046,
            "longitude": 105.85506,
            "type": "venue",
            "distance": 0.129,
            "name": "Authentic Hanoi Boutique Hotel",
            "number": null,
            "postal_code": null,
            "street": null,
            "confidence": 0.7,
            "region": "Ha Noi",
            "region_code": "HI",
            "county": "Hoan Kiem",
            "locality": "Hanoi",
            "administrative_area": null,
            "neighbourhood": null,
            "country": "Vietnam",
            "country_code": "VNM",
            "continent": "Asia",
            "label": "Authentic Hanoi Boutique Hotel, Hanoi, HI, Vietnam"
        },
        {
            "latitude": 21.031,
            "longitude": 105.855,
            "type": "venue",
            "distance": 0.182,
            "name": "Authentic Hanoi Hotel",
            "number": null,
            "postal_code": null,
            "street": null,
            "confidence": 0.7,
            "region": "Ha Noi",
            "region_code": "HI",
            "county": "Hoan Kiem",
            "locality": "Hanoi",
            "administrative_area": null,
            "neighbourhood": null,
            "country": "Vietnam",
            "country_code": "VNM",
            "continent": "Asia",
            "label": "Authentic Hanoi Hotel, Hanoi, HI, Vietnam"
        },
        {
            "latitude": 21.03117,
            "longitude": 105.85488,
            "type": "venue",
            "distance": 0.197,
            "name": "The Jasmine Hotel",
            "number": null,
            "postal_code": null,
            "street": null,
            "confidence": 0.7,
            "region": "Ha Noi",
            "region_code": "HI",
            "county": "Hoan Kiem",
            "locality": "Hanoi",
            "administrative_area": null,
            "neighbourhood": null,
            "country": "Vietnam",
            "country_code": "VNM",
            "continent": "Asia",
            "label": "The Jasmine Hotel, Hanoi, HI, Vietnam"
        },
        {
            "latitude": 21.02889,
            "longitude": 105.8525,
            "type": "venue",
            "distance": 0.211,
            "name": "Hoan Kiem Lake",
            "number": null,
            "postal_code": null,
            "street": null,
            "confidence": 0.7,
            "region": "Ha Noi",
            "region_code": "HI",
            "county": "Hoan Kiem",
            "locality": "Hanoi",
            "administrative_area": null,
            "neighbourhood": null,
            "country": "Vietnam",
            "country_code": "VNM",
            "continent": "Asia",
            "label": "Hoan Kiem Lake, Hanoi, HI, Vietnam"
        },
        {
            "latitude": 21.0307,
            "longitude": 105.85289,
            "type": "venue",
            "distance": 0.213,
            "name": "Cầu Thê Húc",
            "number": null,
            "postal_code": null,
            "street": null,
            "confidence": 0.7,
            "region": "Ha Noi",
            "region_code": "HI",
            "county": "Hoan Kiem",
            "locality": "Hanoi",
            "administrative_area": null,
            "neighbourhood": null,
            "country": "Vietnam",
            "country_code": "VNM",
            "continent": "Asia",
            "label": "Cầu Thê Húc, Hanoi, HI, Vietnam"
        },
        {
            "latitude": 21.03143,
            "longitude": 105.85468,
            "type": "venue",
            "distance": 0.222,
            "name": "Indochina Ii",
            "number": null,
            "postal_code": null,
            "street": null,
            "confidence": 0.7,
            "region": "Ha Noi",
            "region_code": "HI",
            "county": "Hoan Kiem",
            "locality": "Hanoi",
            "administrative_area": null,
            "neighbourhood": null,
            "country": "Vietnam",
            "country_code": "VNM",
            "continent": "Asia",
            "label": "Indochina Ii, Hanoi, HI, Vietnam"
        },
        {
            "latitude": 21.03144,
            "longitude": 105.85468,
            "type": "venue",
            "distance": 0.223,
            "name": "Indochina 2",
            "number": null,
            "postal_code": null,
            "street": null,
            "confidence": 0.7,
            "region": "Ha Noi",
            "region_code": "HI",
            "county": "Hoan Kiem",
            "locality": "Hanoi",
            "administrative_area": null,
            "neighbourhood": null,
            "country": "Vietnam",
            "country_code": "VNM",
            "continent": "Asia",
            "label": "Indochina 2, Hanoi, HI, Vietnam"
        },
        {
            "latitude": 21.03145,
            "longitude": 105.85408,
            "type": "venue",
            "distance": 0.226,
            "name": "Hanoi Royal View",
            "number": null,
            "postal_code": null,
            "street": null,
            "confidence": 0.7,
            "region": "Ha Noi",
            "region_code": "HI",
            "county": "Hoan Kiem",
            "locality": "Hanoi",
            "administrative_area": null,
            "neighbourhood": null,
            "country": "Vietnam",
            "country_code": "VNM",
            "continent": "Asia",
            "label": "Hanoi Royal View, Hanoi, HI, Vietnam"
        },
        {
            "latitude": 21.03145,
            "longitude": 105.85494,
            "type": "venue",
            "distance": 0.229,
            "name": "Indochina Legend Hotel 2",
            "number": null,
            "postal_code": null,
            "street": null,
            "confidence": 0.7,
            "region": "Ha Noi",
            "region_code": "HI",
            "county": "Hoan Kiem",
            "locality": "Hanoi",
            "administrative_area": null,
            "neighbourhood": null,
            "country": "Vietnam",
            "country_code": "VNM",
            "continent": "Asia",
            "label": "Indochina Legend Hotel 2, Hanoi, HI, Vietnam"
        },
        {
            "latitude": 21.03149,
            "longitude": 105.85498,
            "type": "venue",
            "distance": 0.234,
            "name": "Hanoi Elegance Diamond Hotel",
            "number": null,
            "postal_code": null,
            "street": null,
            "confidence": 0.7,
            "region": "Ha Noi",
            "region_code": "HI",
            "county": "Hoan Kiem",
            "locality": "Hanoi",
            "administrative_area": null,
            "neighbourhood": null,
            "country": "Vietnam",
            "country_code": "VNM",
            "continent": "Asia",
            "label": "Hanoi Elegance Diamond Hotel, Hanoi, HI, Vietnam"
        }
    ]
}